[
{"name": "KFC - Hurlingham", "location": "Nairobi, Kenya, ", "city": "Nairobi", "latitude": -1.2956483, "longitude": 36.7993297, "ratingValue": 4.7, "reviewCount": "200+", "categories": ["$$", "American", "Chicken", "Fast Food", "Burgers"], "cusineList": ["American", "Chicken", "Fast Food", "Burgers"]},
{"name": "Maritas Bhajia - Kilimani", "location": "Denis Pritt Rd, Nairobi", "city": "Nairobi", "latitude": -1.2842399523167491, "longitude": 36.78782909852228, "ratingValue": 4.5, "reviewCount": "200+", "categories": ["$$", "African", "Comfort Food", "Steak"], "cusineList": ["African", "Comfort Food", "Steak"]},
{"name": "Galito's - Ojijo Road", "location": "Ojijo Road, Nairobi, ", "city": "Nairobi", "latitude": -1.2670337, "longitude": 36.811806, "ratingValue": 4.4, "reviewCount": "70", "categories": ["$", "Fast Food", "Chicken"], "cusineList": ["Fast Food", "Chicken"]},
{"name": "Chicken Inn - Westlands", "location": "Chicken Inn-Westlands, Nairobi, Nairobi County", "city": "Nairobi", "latitude": -1.2641018, "longitude": 36.8031919, "ratingValue": 4.6, "reviewCount": "178", "categories": ["$", "Chicken", "Burgers", "Wings"], "cusineList": ["Chicken", "Burgers", "Wings"]},
{"name": "Mama Rocks - Westlands", "location": "Parklands Rd, Nairobi, Nairobi County", "city": "Nairobi", "latitude": -1.262488, "longitude": 36.803801, "ratingValue": 4.7, "reviewCount": "200+", "categories": ["$$", "American", "Burgers", "Family Friendly"], "cusineList": ["American", "Burgers", "Family Friendly"]},
{"name": "SuperWings - Westlands", "location": "Purvi House,\r\nNairobi, Westlands, EMEA 00800", "city": "Nairobi", "latitude": -1.2661395369343689, "longitude": 36.80399390014373, "ratingValue": 4.3, "reviewCount": "174", "categories": ["$$", "Comfort Food", "American", "Wings", "Chicken", "Halal", "Fast Food"], "cusineList": ["Comfort Food", "American", "Wings", "Chicken", "Halal", "Fast Food"]},
{"name": "Java House - Uniafric", "location": "Koinange St, Nairobi, Kenya, ", "city": "Nairobi", "latitude": -1.2826489, "longitude": 36.817867, "ratingValue": 4.7, "reviewCount": "58", "categories": ["$$", "Fast Food", "Salads", "Wings", "Sandwich", "Burgers", "Chicken", "Steak", "Juice and Smoothies", "African"], "cusineList": ["Fast Food", "Salads", "Wings", "Sandwich", "Burgers", "Chicken", "Steak", "Juice and Smoothies", "African"]},
{"name": "Kukito - Hurlingham", "location": "Total Hurlingham, Java House At Total Petrol Station, ", "city": "", "latitude": -1.295575, "longitude": 36.801697, "ratingValue": 4.5, "reviewCount": "200+", "categories": ["$$", "Chicken"], "cusineList": ["Chicken"]},
{"name": "Caprice", "location": "Westlands Mansion, Mpaka Rd, Nairobi, Kenya, ", "city": "Nairobi", "latitude": -1.2657173, "longitude": 36.8035126, "ratingValue": 4.3, "reviewCount": "110", "categories": ["$", "Fast Food", "Family Friendly"], "cusineList": ["Fast Food", "Family Friendly"]},
{"name": "Marty\u2019s Famous Burgers - Kilimani", "location": "Argwings Kodhek Rd, Nairobi", "city": "Nairobi", "latitude": -1.29264, "longitude": 36.78964, "ratingValue": 4.5, "reviewCount": "200+", "categories": ["$$", "Burgers", "American", "Fast Food", "Wings", "Chicken"], "cusineList": ["Burgers", "American", "Fast Food", "Wings", "Chicken"]},
{"name": "RocoMamas - Sarit Centre", "location": "Sarit Centre, Nairobi, Nairobi County", "city": "Nairobi", "latitude": -1.2611485, "longitude": 36.801987, "ratingValue": 4.6, "reviewCount": "73", "categories": ["$$", "Burgers", "Wings", "American", "Family Friendly"], "cusineList": ["Burgers", "Wings", "American", "Family Friendly"]},
{"name": "The Grill Shack", "location": "15 Mwanzi Rd, Nairobi, Nairobi County", "city": "Nairobi", "latitude": -1.2567301, "longitude": 36.8031983, "ratingValue": 4.5, "reviewCount": "71", "categories": ["$$", "Steak", "Burgers", "American", "Family Friendly"], "cusineList": ["Steak", "Burgers", "American", "Family Friendly"]},
{"name": "Delsi Wings - Kilimani", "location": " 31 Wood Ave, Nairobi, Kenya, Equitoriai Business Park, Nairobi 00200", "city": "Nairobi", "latitude": -1.2956216, "longitude": 36.786446, "ratingValue": 4.4, "reviewCount": "71", "categories": ["$$", "Comfort Food", "American", "Wings", "Allergy Friendly"], "cusineList": ["Comfort Food", "American", "Wings", "Allergy Friendly"]},
{"name": "Marty\u2019s Famous Burgers - Westlands", "location": "Mpaka Rd, Nairobi", "city": "Nairobi", "latitude": -1.26583, "longitude": 36.80368, "ratingValue": 4.5, "reviewCount": "200+", "categories": ["$$", "Burgers", "Wings", "Chicken"], "cusineList": ["Burgers", "Wings", "Chicken"]},
{"name": "EXCELLENT WINGS NAIROBI ", "location": "31 Wood Avenue Kilimani , Second Floor , Nairobi, Nairobi 00505", "city": "Nairobi", "latitude": -1.29634, "longitude": 36.78643, "ratingValue": 4.2, "reviewCount": "30", "categories": ["$$", "Wings", "Comfort Food", "American"], "cusineList": ["Wings", "Comfort Food", "American"]},
{"name": "Flaminn Peri Peri and Pizza", "location": "Argwings Kodhek Road, Nairobi, Kenya, ", "city": "", "latitude": -1.2949109, "longitude": 36.799706, "ratingValue": 4.6, "reviewCount": "132", "categories": ["$$", "Halal", "Chicken", "Fast Food"], "cusineList": ["Halal", "Chicken", "Fast Food"]},
{"name": "Urban Burger CBD", "location": "Chester House- Nairobi, Nairobi County", "city": "Nairobi", "latitude": -1.28437, "longitude": 36.81871, "ratingValue": 4.2, "reviewCount": "65", "categories": ["$$", "Chicken", "Wings", "Burgers"], "cusineList": ["Chicken", "Wings", "Burgers"]},
{"name": "Debonairs Pizza -  ABC Place", "location": "Waiyaki Way Total Abc, Nairobi, Kenya, ", "city": "Nairobi", "latitude": -1.2592551, "longitude": 36.778347, "ratingValue": 4.6, "reviewCount": "200+", "categories": ["$$", "Pizza", "Comfort Food"], "cusineList": ["Pizza", "Comfort Food"]},
{"name": "Kilimanjaro Jamia", "location": "Kimathi St, Nairobi, Nairobi County", "city": "Nairobi", "latitude": -1.2827931457346287, "longitude": 36.821305866609826, "ratingValue": 4.6, "reviewCount": "200+", "categories": ["$$", "African", "BBQ", "Fast Food", "American", "Sandwich", "Burgers", "Salads", "Breakfast and Brunch", "Juice and Smoothies", "Mexican", "Allergy Friendly"], "cusineList": ["African", "BBQ", "Fast Food", "American", "Sandwich", "Burgers", "Salads", "Breakfast and Brunch", "Juice and Smoothies", "Mexican", "Allergy Friendly"]},
{"name": "Big Square 680", "location": "Big Square 680 -Cbd, Nairobi, Nairobi County", "city": "Nairobi", "latitude": -1.2855971, "longitude": 36.8206597, "ratingValue": 4.7, "reviewCount": "61", "categories": ["$", "Burgers", "Chicken", "Pizza", "American"], "cusineList": ["Burgers", "Chicken", "Pizza", "American"]},
{"name": "Delsi Wings and Ribs", "location": "Wood Ave, Nairobi", "city": "Nairobi", "latitude": -1.2960929, "longitude": 36.786728, "ratingValue": 4, "reviewCount": "54", "categories": ["$$", "African", "Comfort Food", "Steak"], "cusineList": ["African", "Comfort Food", "Steak"]},
{"name": "Beyond Flavours", "location": "Parklands Ring Rd, Nairobi", "city": "Nairobi", "latitude": -1.25752, "longitude": 36.80602, "ratingValue": 4.1, "reviewCount": "15", "categories": ["$$", "African", "Chicken", "Burgers"], "cusineList": ["African", "Chicken", "Burgers"]},
{"name": "Ashiana Vegetarian", "location": "Nairobi, Kenya, Nairobi County", "city": "Nairobi", "latitude": -1.2638937, "longitude": 36.8051795, "ratingValue": 4.6, "reviewCount": "142", "categories": ["$", "Vegetarian", "Vegetarian Friendly", "Burgers", "Sandwich", "Indian", "Pizza"], "cusineList": ["Vegetarian", "Vegetarian Friendly", "Burgers", "Sandwich", "Indian", "Pizza"]},
{"name": "Havana Bar & Restaurante", "location": "Woodvale Grove, P. O. Box 806, Nairobi, Kenya, Bandari Plaza, ", "city": "Nairobi", "latitude": -1.2643036, "longitude": 36.8042773, "ratingValue": 4.5, "reviewCount": "57", "categories": ["$", "Mexican"], "cusineList": ["Mexican"]},
{"name": "Dadas Swahili Kitchen ", "location": "Four Greenway, Westlands Road, ", "city": "", "latitude": -1.2683283, "longitude": 36.807083, "ratingValue": 4.7, "reviewCount": "200+", "categories": ["$$", "African: Other", "Swahili", "Biryani"], "cusineList": ["African: Other", "Swahili", "Biryani"]},
{"name": "Nirvana Vegetarian khazana Restaurant", "location": "Fourth Parklands Ave, Sky Mall, Nairobi, Nairobi County", "city": "Nairobi", "latitude": -1.2574554, "longitude": 36.8175442, "ratingValue": 4.7, "reviewCount": "200+", "categories": ["$$", "Vegetarian", "Indian", "Juice and Smoothies"], "cusineList": ["Vegetarian", "Indian", "Juice and Smoothies"]},
{"name": "Exotica", "location": "1st Floor Stellato Complex, 42 Muthithi Road, Westlands, Nairobi, ", "city": "Nairobi", "latitude": -1.2674071, "longitude": 36.8083915, "ratingValue": 4.3, "reviewCount": "47", "categories": ["$$", "Comfort Food", "American", "Burgers", "Allergy Friendly"], "cusineList": ["Comfort Food", "American", "Burgers", "Allergy Friendly"]},
{"name": "Pizza Hut  Yaya", "location": "Yaya Center, Nairobi, Nairobi 100", "city": "Nairobi", "latitude": -1.2924, "longitude": 36.78801, "ratingValue": 4.2, "reviewCount": "200+", "categories": ["$$", "Pizza", "Wings"], "cusineList": ["Pizza", "Wings"]},
{"name": "Original Maru Bhajia - Diamond Plaza", "location": "Diamond Plaza, Nairobi, Nairobi County", "city": "Nairobi", "latitude": -1.2573363, "longitude": 36.8180709, "ratingValue": 4.6, "reviewCount": "96", "categories": ["$$", "Indian"], "cusineList": ["Indian"]},
{"name": "Shabz bbq", "location": "Third Parklands Avenue, Nairobi, ", "city": "Nairobi", "latitude": -1.2597911, "longitude": 36.817635, "ratingValue": 4.1, "reviewCount": "11", "categories": ["$$", "BBQ", "American", "Burgers"], "cusineList": ["BBQ", "American", "Burgers"]},
{"name": "Tikka Barbecue Corner -Gigiri", "location": "Fourth Parklands Ave, Nairobi, Kenya, Shop No. 2, ", "city": "Nairobi", "latitude": -1.258163, "longitude": 36.818555, "ratingValue": 4.5, "reviewCount": "36", "categories": ["$", "Indian", "BBQ", "Chicken", "Salads", "Fast Food", "Indian Curry"], "cusineList": ["Indian", "BBQ", "Chicken", "Salads", "Fast Food", "Indian Curry"]},
{"name": "Beijing Kitchen - Parklands", "location": "Commercial Business Centre Parklands Ring Road , Ground Floor, Nairobi, 00100, ", "city": "Nairobi", "latitude": -1.26048, "longitude": 36.80358, "ratingValue": 4.2, "reviewCount": "113", "categories": ["$$", "Chinese", "Asian", "Noodles", "Allergy Friendly"], "cusineList": ["Chinese", "Asian", "Noodles", "Allergy Friendly"]},
{"name": "Ankole Grill - Kilimani", "location": "Ankole Grill, Senteu Plaza, Nairobi, Nairobi County", "city": "Nairobi", "latitude": -1.2893236, "longitude": 36.7831556, "ratingValue": 4.8, "reviewCount": "200+", "categories": ["$$", "African", "BBQ", "Burgers", "Family Friendly"], "cusineList": ["African", "BBQ", "Burgers", "Family Friendly"]},
{"name": "CJ'S Koinange", "location": "Cj'S Koinange Street, Nairobi, EMEA 00100", "city": "Nairobi", "latitude": -1.283038731899281, "longitude": 36.818598351222654, "ratingValue": 4.8, "reviewCount": "200+", "categories": ["$$", "Coffee and Tea", "Breakfast and Brunch", "Comfort Food"], "cusineList": ["Coffee and Tea", "Breakfast and Brunch", "Comfort Food"]},
{"name": "Mugg & Bean On The Move - Hurlingham", "location": "Total Hurlingham Service Station Argwings Kodhek Rd, Nairobi, Nairobi 400", "city": "Nairobi", "latitude": -1.2954981400329073, "longitude": 36.80209802799949, "ratingValue": 4.8, "reviewCount": "147", "categories": ["$$", "Salads", "Breakfast and Brunch", "Sandwich", "Juice and Smoothies", "Burgers"], "cusineList": ["Salads", "Breakfast and Brunch", "Sandwich", "Juice and Smoothies", "Burgers"]},
{"name": "Mataam Swahili ", "location": "Ngong Rd, Nairobi, Kenya, Opposite Total Petrol Station, ", "city": "Nairobi", "latitude": -1.2990294, "longitude": 36.789295, "ratingValue": 4.1, "reviewCount": "200+", "categories": ["$", "Fast Food", "African", "Fish and Chips", "Seafood", "Breakfast and Brunch"], "cusineList": ["Fast Food", "African", "Fish and Chips", "Seafood", "Breakfast and Brunch"]},
{"name": "Lam-Lam's Pizza and Yummy Bitings", "location": "Mini-Mall,Valley Arcade, Off  Hendred Road, Nairobi, ", "city": "", "latitude": -1.29266, "longitude": 36.76348, "ratingValue": 4, "reviewCount": "47", "categories": ["$$", "Fast Food", "Comfort Food"], "cusineList": ["Fast Food", "Comfort Food"]},
{"name": "Charlie's - Kileleshwa", "location": "Kasuku Center, Nairobi, Central", "city": "Nairobi", "latitude": -1.2752785, "longitude": 36.7949085, "ratingValue": 4.9, "reviewCount": "56", "categories": ["$$$", "Pizza", "Burgers", "Comfort Food"], "cusineList": ["Pizza", "Burgers", "Comfort Food"]},
{"name": "Artcaffe - Chester House", "location": "Chester House, Koinange Street, Cbd, Nairobi., Cbd , ", "city": "Nairobi", "latitude": -1.2845745, "longitude": 36.8165031, "ratingValue": 4.8, "reviewCount": "46", "categories": ["$$", "French", "Italian", "Pasta", "Pastry"], "cusineList": ["French", "Italian", "Pasta", "Pastry"]},
{"name": "Pizza Mojo 680", "location": "Big Square 680 -Cbd, Nairobi, Nairobi County", "city": "Nairobi", "latitude": -1.2856043, "longitude": 36.8206548, "ratingValue": 4.1, "reviewCount": "24", "categories": ["$", "Pizza"], "cusineList": ["Pizza"]},
{"name": "Falafel House - Sarit Centre", "location": "Sarit Centre, Nairobi", "city": "Nairobi", "latitude": -1.26119, "longitude": 36.80162, "ratingValue": 4.8, "reviewCount": "59", "categories": ["$$", "Burgers", "Salads", "Desserts"], "cusineList": ["Burgers", "Salads", "Desserts"]},
{"name": "Connect Coffee", "location": "Riverside, Drive, Nairobi, ", "city": "Nairobi", "latitude": -1.2720522, "longitude": 36.806545, "ratingValue": 4.9, "reviewCount": "118", "categories": ["$", "Coffee and Tea", "Sandwich", "Salads", "Pastry", "Cafe", "Sushi", "Juice and Smoothies"], "cusineList": ["Coffee and Tea", "Sandwich", "Salads", "Pastry", "Cafe", "Sushi", "Juice and Smoothies"]},
{"name": "Swahili Plate - Sarit Centre", "location": "Karuna Rd, Nairobi, Nairobi County", "city": "Nairobi", "latitude": -1.2607969, "longitude": 36.8021861, "ratingValue": 4.3, "reviewCount": "96", "categories": ["$", "African", "BBQ"], "cusineList": ["African", "BBQ"]},
{"name": "The Chef House", "location": "Fourth Parklands Ave, Nairobi, Nairobi County", "city": "Nairobi", "latitude": -1.2573474, "longitude": 36.8182618, "ratingValue": 4.6, "reviewCount": "13", "categories": ["$", "Fast Food", "Chicken"], "cusineList": ["Fast Food", "Chicken"]},
{"name": "Beijing Square Meals", "location": "Westland Commercial Center Park/ Ring Road Directly Opposite Kenrail Towers Old Block Near Parking Paying Station, Nairobi, Nairobi 00100", "city": "Nairobi", "latitude": -1.2605515758043764, "longitude": 36.803358966433166, "ratingValue": 4.1, "reviewCount": "57", "categories": ["$$", "African", "Steak", "Comfort Food"], "cusineList": ["African", "Steak", "Comfort Food"]},
{"name": "SUGO Restaurant", "location": "Sarit Centre, Nairobi, Nairobi County", "city": "Nairobi", "latitude": -1.2606697, "longitude": 36.8016224, "ratingValue": 4.7, "reviewCount": "51", "categories": ["$$", "Italian", "Family Friendly"], "cusineList": ["Italian", "Family Friendly"]},
{"name": "Chinese hungers pot kitchen.", "location": "Aqua Blue Express Car Wash, Ngong Road, Aqua  Blue Express , Nairobi, Nairobi 00100", "city": "Nairobi", "latitude": -1.2980205324261038, "longitude": 36.79603450111498, "ratingValue": 3.9, "reviewCount": "50", "categories": ["$$", "Asian", "Asian Fusion", "Korean"], "cusineList": ["Asian", "Asian Fusion", "Korean"]},
{"name": "Haandi", "location": "Ring Rd Parklands, Nairobi, Nairobi County", "city": "Nairobi", "latitude": -1.2645187, "longitude": 36.8024124, "ratingValue": 4.4, "reviewCount": "56", "categories": ["$$", "Indian", "Indian Curry", "Asian", "Vegan", "Vegetarian", "Chicken", "Desserts"], "cusineList": ["Indian", "Indian Curry", "Asian", "Vegan", "Vegetarian", "Chicken", "Desserts"]},
{"name": "The Top Layer - Ola Sangale", "location": "Ole-Sangale Link Road, Nairobi, Nairobi 00100", "city": "Nairobi", "latitude": -1.3097695567303933, "longitude": 36.812056477249364, "ratingValue": 3.5, "reviewCount": "25", "categories": ["$$", "African", "Comfort Food", "Steak"], "cusineList": ["African", "Comfort Food", "Steak"]},
{"name": "Breakfast Republic", "location": "Ngong Rd, Nairobi, Kenya, Rocky Driving School, ", "city": "Nairobi", "latitude": -1.298504, "longitude": 36.789066, "ratingValue": 4, "reviewCount": "158", "categories": ["$$", "Burgers", "Chicken"], "cusineList": ["Burgers", "Chicken"]},
{"name": "Tunic Kitchen", "location": "Kandara Rd, Nairobi", "city": "Nairobi", "latitude": -1.27571, "longitude": 36.78928, "ratingValue": 4, "reviewCount": "62", "categories": ["$", "African", "Fast Food", "BBQ"], "cusineList": ["African", "Fast Food", "BBQ"]},
{"name": "Jaydee African Dishes", "location": "Kandara Rd, Nairobi", "city": "Nairobi", "latitude": -1.27571, "longitude": 36.78928, "ratingValue": 3.5, "reviewCount": "105", "categories": ["$", "African"], "cusineList": ["African"]},
{"name": "Pete's Cafe - Chania Avenue", "location": "Chania Ave, Nairobi, Kenya, Ground Floor,  Highlands Suites, Kilimani. , Nairobi County", "city": "Nairobi", "latitude": -1.2949826, "longitude": 36.7904559, "ratingValue": 4.2, "reviewCount": "40", "categories": ["$$", "American", "African", "Breakfast and Brunch"], "cusineList": ["American", "African", "Breakfast and Brunch"]},
{"name": "Pete's Cafe -Arch place", "location": "The Arch Place, Kilimani, Nairobi, Nairobi County", "city": "Nairobi", "latitude": -1.2857126, "longitude": 36.7895319, "ratingValue": 4.3, "reviewCount": "32", "categories": ["$$", "American", "Breakfast and Brunch", "Chicken", "Allergy Friendly"], "cusineList": ["American", "Breakfast and Brunch", "Chicken", "Allergy Friendly"]},
{"name": "NEWS CAFE - Sarit", "location": "Karuna Rd, Nairobi, Nairobi County", "city": "Nairobi", "latitude": -1.2613832, "longitude": 36.8023458, "ratingValue": 4.2, "reviewCount": "26", "categories": ["$$", "Breakfast and Brunch", "Sandwich", "Salads"], "cusineList": ["Breakfast and Brunch", "Sandwich", "Salads"]},
{"name": "Nawwal Delight", "location": "Diamond Plaza, Nairobi, EMEA 00400", "city": "Nairobi", "latitude": -1.2582162793367744, "longitude": 36.81834992682855, "ratingValue": 4.1, "reviewCount": "40", "categories": ["$$", "Indian", "Vegetarian", "Asian"], "cusineList": ["Indian", "Vegetarian", "Asian"]},
{"name": "Coco Jambo - Dennis Pritt", "location": "Denis Pritt Rd, Nairobi", "city": "Nairobi", "latitude": -1.2858062009343436, "longitude": 36.78527076160916, "ratingValue": 4.2, "reviewCount": "34", "categories": ["$$", "African", "Bar Food", "BBQ"], "cusineList": ["African", "Bar Food", "BBQ"]},
{"name": "Cheers Bakery & Cafe - Sky Mall", "location": "Fourth Parklands Ave, Sky Mall, Nairobi, Nairobi County", "city": "Nairobi", "latitude": -1.2571436, "longitude": 36.8179926, "ratingValue": 4.3, "reviewCount": "44", "categories": ["$$", "Pastry", "Bakery"], "cusineList": ["Pastry", "Bakery"]},
{"name": "Sushi Time", "location": "Ananas Court , Lower Kabete Road, Nairobi, 00100, ", "city": "", "latitude": -1.2607252308632861, "longitude": 36.80297150895968, "ratingValue": 3.1, "reviewCount": "18", "categories": ["$$", "African", "Comfort Food", "Steak"], "cusineList": ["African", "Comfort Food", "Steak"]},
{"name": "360 Degrees Pizza - ABC Place", "location": "Nairobi, Kenya, ", "city": "Nairobi", "latitude": -1.2597625, "longitude": 36.77614, "ratingValue": 4.7, "reviewCount": "200+", "categories": ["$$", "Pizza", "Italian", "Pasta", "Family Friendly"], "cusineList": ["Pizza", "Italian", "Pasta", "Family Friendly"]},
{"name": "Chowpaty - Kileleshwa", "location": "Olenguruone Road, Kileleshwa\r\nNairobi, Nairobi 00800", "city": "Nairobi", "latitude": -1.282487931492366, "longitude": 36.78485905962444, "ratingValue": 4.8, "reviewCount": "173", "categories": ["$", "Vegetarian", "South Indian", "Indian", "Indian Curry"], "cusineList": ["Vegetarian", "South Indian", "Indian", "Indian Curry"]},
{"name": "ChiQ Japanese Restaurant - Sarit", "location": "Sarit Centre, Karuna Rd, Nairobi, Kenya, 2nd Floor, Food Court, ", "city": "Nairobi", "latitude": -1.2611483, "longitude": 36.801983, "ratingValue": 4.8, "reviewCount": "84", "categories": ["$$", "Japanese: Ramen", "Pizza", "Pasta"], "cusineList": ["Japanese: Ramen", "Pizza", "Pasta"]},
{"name": "King of shawarma", "location": "Kilimani Ring Rd, Nairobi", "city": "Nairobi", "latitude": -1.2944350132433726, "longitude": 36.7881544708496, "ratingValue": 4.1, "reviewCount": "15", "categories": ["$$", "African", "Ethiopian", "Vegetarian"], "cusineList": ["African", "Ethiopian", "Vegetarian"]}
]